{
  "type": "FeatureCollection",
  "features": [
    {
      "type": "Feature",
      "properties": {
        "marker-color": "#7e7e7e",
        "marker-size": "medium",
        "marker-symbol": "",
        "title": "Ladd Army Airfield"
      },
      "geometry": {
        "type": "Point",
        "coordinates": [
          -147.614167,
          64.8375
        ]
      }
    },
    {
      "type": "Feature",
      "properties": {
        "title": "Galena Airport",
        "marker-size": ""
      },
      "geometry": {
        "type": "Point",
        "coordinates": [
          -156.934444,
          64.736111
        ]
      }
    },
    {
      "type": "Feature",
      "properties": {
        "title": "Marks Army Airfield"
      },
      "geometry": {
        "type": "Point",
        "coordinates": [
          -165.445278,
          64.512222
        ]
      }
    },
    {
      "type": "Feature",
      "properties": {
        "title": "Gambell Army Airfield"
      },
      "geometry": {
        "type": "Point",
        "coordinates": [
          -171.733056,
          63.767778
        ]
      }
    },
    {
      "type": "Feature",
      "properties": {
        "title": "Uelkal"
      },
      "geometry": {
        "type": "Point",
        "coordinates": [
          -179.283333,
          65.533333
        ]
      }
    }
  ]
}
