{
  "type": "FeatureCollection",
  "features": [
    {
      "type": "Feature",
      "properties": {
        "marker-color": "#821000",
        "marker-size": "small",
        "marker-symbol": "airfield",
        "title": "Ladd Army Airfield",
        "description": "1st regiment"
      },
      "geometry": {
        "type": "Point",
        "coordinates": [
          -147.614167,
          64.8375
        ]
      }
    },
    {
      "type": "Feature",
      "properties": {
        "title": "Galena Airport",
        "marker-size": "small",
        "marker-symbol": "airfieldv",
        "marker-color": "#821000",
        "description": "1st regiment"
      },
      "geometry": {
        "type": "Point",
        "coordinates": [
          -156.934444,
          64.736111
        ]
      }
    },
    {
      "type": "Feature",
      "properties": {
        "title": "Marks Army Airfield",
        "marker-size": "small",
        "marker-symbol": "airfield",
        "marker-color": "#821000",
        "description": "1st regiment"
      },
      "geometry": {
        "type": "Point",
        "coordinates": [
          -165.445278,
          64.512222
        ]
      }
    },
    {
      "type": "Feature",
      "properties": {
        "title": "Gambell Army Airfield",
        "marker-size": "small",
        "marker-symbol": "airfield",
        "marker-color": "#821000",
        "description": "1st regiment"
      },
      "geometry": {
        "type": "Point",
        "coordinates": [
          -171.733056,
          63.767778
        ]
      }
    },
    {
      "type": "Feature",
      "properties": {
        "marker-color": "#821000",
        "marker-size": "small",
        "marker-symbol": "airfield",
        "title": "Uelkal",
        "description": "1st regiment"
      },
      "geometry": {
        "type": "Point",
        "coordinates": [
          -179.283333,
          65.533333
        ]
      }
    },
    {
      "type": "Feature",
      "properties": {
        "marker-color": "#821000",
        "marker-size": "small",
        "marker-symbol": "airfield",
        "title": "Anadyr",
        "description": "2nd regiment"
      },
      "geometry": {
        "type": "Point",
        "coordinates": [
          177.516667,
          64.733333
        ]
      }
    },
    {
      "type": "Feature",
      "properties": {
        "marker-color": "#821000",
        "marker-size": "small",
        "marker-symbol": "airfield",
        "title": "Markovo",
        "description": "2nd regiment"
      },
      "geometry": {
        "type": "Point",
        "coordinates": [
          170.416667,
          64.666667
        ]
      }
    },
    {
      "type": "Feature",
      "properties": {
        "marker-color": "#821000",
        "marker-size": "small",
        "marker-symbol": "airfield",
        "title": "Seymchan",
        "description": "2nd regiment"
      },
      "geometry": {
        "type": "Point",
        "coordinates": [
          152.42,
          62.916667
        ]
      }
    },
    {
      "type": "Feature",
      "properties": {
        "title": "Zyryanka",
        "marker-size": "small",
        "marker-symbol": "airfield",
        "marker-color": "#821000",
        "description": "3rd regiment"
      },
      "geometry": {
        "type": "Point",
        "coordinates": [
          150.705,
          65.736667
        ]
      }
    },
    {
      "type": "Feature",
      "properties": {
        "title": "Susuman",
        "marker-size": "small",
        "marker-symbol": "airfield",
        "marker-color": "#821000",
        "description": "3rd regiment"
      },
      "geometry": {
        "type": "Point",
        "coordinates": [
          148.146667,
          62.766667
        ]
      }
    },
    {
      "type": "Feature",
      "properties": {
        "title": "Oymyakon",
        "marker-size": "small",
        "marker-color": "#821000",
        "marker-symbol": "airfield",
        "description": "3rd regiment"
      },
      "geometry": {
        "type": "Point",
        "coordinates": [
          142.785833,
          63.460833
        ]
      }
    },
    {
      "type": "Feature",
      "properties": {
        "title": "Khandyga",
        "marker-size": "small",
        "marker-symbol": "airfield",
        "marker-color": "#821000",
        "description": "3rd regiment"
      },
      "geometry": {
        "type": "Point",
        "coordinates": [
          135.6,
          62.67
        ]
      }
    },
    {
      "type": "Feature",
      "properties": {
        "title": "Ust-Maya",
        "marker-size": "small",
        "marker-symbol": "airfield",
        "marker-color": "#821000",
        "description": "3rd regiment"
      },
      "geometry": {
        "type": "Point",
        "coordinates": [
          134.3,
          60.42
        ]
      }
    },
    {
      "type": "Feature",
      "properties": {
        "title": "Yakutsk",
        "marker-size": "small",
        "marker-symbol": "airfield",
        "marker-color": "#821000",
        "description": "3rd regiment"
      },
      "geometry": {
        "type": "Point",
        "coordinates": [
          129.771667,
          62.093333
        ]
      }
    },
    {
      "type": "Feature",
      "properties": {
        "marker-color": "#821000",
        "marker-size": "small",
        "marker-symbol": "airfield",
        "title": "Aldan",
        "description": "4th regiment"
      },
      "geometry": {
        "type": "Point",
        "coordinates": [
          125.35,
          58.666667
        ]
      }
    },
    {
      "type": "Feature",
      "properties": {
        "title": "Olyokminsk",
        "marker-size": "small",
        "marker-color": "#821000",
        "marker-symbol": "airfield",
        "description": "4th regiment"
      },
      "geometry": {
        "type": "Point",
        "coordinates": [
          120.433333,
          60.366667
        ]
      }
    },
    {
      "type": "Feature",
      "properties": {
        "title": "Bodaybo",
        "marker-size": "small",
        "marker-symbol": "airfield",
        "marker-color": "#821000",
        "description": "4th regiment"
      },
      "geometry": {
        "type": "Point",
        "coordinates": [
          114.2425,
          57.866389
        ]
      }
    },
    {
      "type": "Feature",
      "properties": {
        "title": "Vitim",
        "marker-size": "small",
        "marker-symbol": "airfield",
        "marker-color": "#821000",
        "description": "4th regiment"
      },
      "geometry": {
        "type": "Point",
        "coordinates": [
          112.562778,
          59.457778
        ]
      }
    },
    {
      "type": "Feature",
      "properties": {
        "title": "Kirensk",
        "marker-size": "small",
        "marker-symbol": "airfield",
        "marker-color": "#821000",
        "description": "4th regiment"
      },
      "geometry": {
        "type": "Point",
        "coordinates": [
          108.06,
          57.77
        ]
      }
    },
    {
      "type": "Feature",
      "properties": {
        "title": "Ust-Kut",
        "marker-size": "small",
        "marker-symbol": "airfield",
        "marker-color": "#821000",
        "description": "5th regiment"
      },
      "geometry": {
        "type": "Point",
        "coordinates": [
          105.73,
          56.856667
        ]
      }
    },
    {
      "type": "Feature",
      "properties": {
        "marker-color": "#821000",
        "marker-symbol": "airfield",
        "title": "Krasnoyarsk",
        "marker-size": "small",
        "description": "5th regiment"
      },
      "geometry": {
        "type": "Point",
        "coordinates": [
          92.906667,
          56.041667
        ]
      }
    }
  ]
}