{
  "type": "FeatureCollection",
  "features": [
    {
      "type": "Feature",
      "properties": {
        "marker-color": "#7e7e7e",
        "marker-size": "medium",
        "marker-symbol": "",
        "title": "Ladd Army Airfield",
        "unit": "1st regiment"
      },
      "geometry": {
        "type": "Point",
        "coordinates": [
          -147.614167,
          64.8375
        ]
      }
    },
    {
      "type": "Feature",
      "properties": {
        "title": "Galena Airport",
        "marker-size": "",
        "unit": "1st regiment"
      },
      "geometry": {
        "type": "Point",
        "coordinates": [
          -156.934444,
          64.736111
        ]
      }
    },
    {
      "type": "Feature",
      "properties": {
        "title": "Marks Army Airfield",
        "unit": "1st regiment",
        "marker-size": ""
      },
      "geometry": {
        "type": "Point",
        "coordinates": [
          -165.445278,
          64.512222
        ]
      }
    },
    {
      "type": "Feature",
      "properties": {
        "title": "Gambell Army Airfield",
        "unit": "1st regiment",
        "marker-size": ""
      },
      "geometry": {
        "type": "Point",
        "coordinates": [
          -171.733056,
          63.767778
        ]
      }
    },
    {
      "type": "Feature",
      "properties": {
        "marker-color": "#7e7e7e",
        "marker-size": "medium",
        "marker-symbol": "",
        "title": "Uelkal",
        "unit": "1st regiment"
      },
      "geometry": {
        "type": "Point",
        "coordinates": [
          -179.283333,
          65.533333
        ]
      }
    },
    {
      "type": "Feature",
      "properties": {
        "marker-color": "#7e7e7e",
        "marker-size": "small",
        "marker-symbol": "",
        "title": "Anadyr",
        "unit": "2nd regiment"
      },
      "geometry": {
        "type": "Point",
        "coordinates": [
          177.516667,
          64.733333
        ]
      }
    },
    {
      "type": "Feature",
      "properties": {
        "marker-color": "#7e7e7e",
        "marker-size": "small",
        "marker-symbol": "",
        "title": "Markovo",
        "unit": "2nd regiment"
      },
      "geometry": {
        "type": "Point",
        "coordinates": [
          170.416667,
          64.666667
        ]
      }
    },
    {
      "type": "Feature",
      "properties": {
        "marker-color": "#7e7e7e",
        "marker-size": "small",
        "marker-symbol": "",
        "title": "Seymchan",
        "unit": "2nd regiment"
      },
      "geometry": {
        "type": "Point",
        "coordinates": [
          152.42,
          62.916667
        ]
      }
    }
  ]
}