{
  "type": "FeatureCollection",
  "features": [
    {
      "type": "Feature",
      "properties": {
        "marker-color": "#821000",
        "marker-size": "small",
        "marker-symbol": 1,
        "title": "Ladd Army Airfield",
        "unit": "1st regiment"
      },
      "geometry": {
        "type": "Point",
        "coordinates": [
          -147.614167,
          64.8375
        ]
      }
    },
    {
      "type": "Feature",
      "properties": {
        "title": "Galena Airport",
        "marker-size": "small",
        "unit": "1st regiment",
        "marker-symbol": 1,
        "marker-color": "#821000"
      },
      "geometry": {
        "type": "Point",
        "coordinates": [
          -156.934444,
          64.736111
        ]
      }
    },
    {
      "type": "Feature",
      "properties": {
        "title": "Marks Army Airfield",
        "unit": "1st regiment",
        "marker-size": "small",
        "marker-symbol": 1,
        "marker-color": "#821000"
      },
      "geometry": {
        "type": "Point",
        "coordinates": [
          -165.445278,
          64.512222
        ]
      }
    },
    {
      "type": "Feature",
      "properties": {
        "title": "Gambell Army Airfield",
        "unit": "1st regiment",
        "marker-size": "small",
        "marker-symbol": 1,
        "marker-color": "#821000"
      },
      "geometry": {
        "type": "Point",
        "coordinates": [
          -171.733056,
          63.767778
        ]
      }
    },
    {
      "type": "Feature",
      "properties": {
        "marker-color": "#821000",
        "marker-size": "small",
        "marker-symbol": 1,
        "title": "Uelkal",
        "unit": "1st regiment"
      },
      "geometry": {
        "type": "Point",
        "coordinates": [
          -179.283333,
          65.533333
        ]
      }
    },
    {
      "type": "Feature",
      "properties": {
        "marker-color": "#821000",
        "marker-size": "small",
        "marker-symbol": 2,
        "title": "Anadyr",
        "unit": "2nd regiment"
      },
      "geometry": {
        "type": "Point",
        "coordinates": [
          177.516667,
          64.733333
        ]
      }
    },
    {
      "type": "Feature",
      "properties": {
        "marker-color": "#821000",
        "marker-size": "small",
        "marker-symbol": 2,
        "title": "Markovo",
        "unit": "2nd regiment"
      },
      "geometry": {
        "type": "Point",
        "coordinates": [
          170.416667,
          64.666667
        ]
      }
    },
    {
      "type": "Feature",
      "properties": {
        "marker-color": "#821000",
        "marker-size": "small",
        "marker-symbol": 2,
        "title": "Seymchan",
        "unit": "2nd regiment"
      },
      "geometry": {
        "type": "Point",
        "coordinates": [
          152.42,
          62.916667
        ]
      }
    },
    {
      "type": "Feature",
      "properties": {
        "title": "Zyryanka",
        "marker-size": "small",
        "unit": "3rd regiment",
        "marker-symbol": 3,
        "marker-color": "#821000"
      },
      "geometry": {
        "type": "Point",
        "coordinates": [
          150.705,
          65.736667
        ]
      }
    },
    {
      "type": "Feature",
      "properties": {
        "title": "Susuman",
        "marker-size": "small",
        "unit": "3rd regiment",
        "marker-symbol": 3,
        "marker-color": "#821000"
      },
      "geometry": {
        "type": "Point",
        "coordinates": [
          148.146667,
          62.766667
        ]
      }
    },
    {
      "type": "Feature",
      "properties": {
        "title": "Oymyakon",
        "marker-size": "small",
        "unit": "3rd regiment",
        "marker-color": "#821000",
        "marker-symbol": 3
      },
      "geometry": {
        "type": "Point",
        "coordinates": [
          142.785833,
          63.460833
        ]
      }
    },
    {
      "type": "Feature",
      "properties": {
        "title": "Khandyga",
        "marker-size": "small",
        "unit": "3rd regiment",
        "marker-symbol": 3,
        "marker-color": "#821000"
      },
      "geometry": {
        "type": "Point",
        "coordinates": [
          135.6,
          62.67
        ]
      }
    },
    {
      "type": "Feature",
      "properties": {
        "title": "Ust-Maya",
        "marker-size": "small",
        "unit": "3rd regiment",
        "marker-symbol": 3,
        "marker-color": "#821000"
      },
      "geometry": {
        "type": "Point",
        "coordinates": [
          134.3,
          60.42
        ]
      }
    },
    {
      "type": "Feature",
      "properties": {
        "title": "Yakutsk",
        "marker-size": "small",
        "unit": "3rd regiment",
        "marker-symbol": 3,
        "marker-color": "#821000"
      },
      "geometry": {
        "type": "Point",
        "coordinates": [
          129.771667,
          62.093333
        ]
      }
    },
    {
      "type": "Feature",
      "properties": {
        "marker-color": "#821000",
        "marker-size": "small",
        "marker-symbol": 4,
        "title": "Aldan",
        "unit": "4th regiment"
      },
      "geometry": {
        "type": "Point",
        "coordinates": [
          125.35,
          58.666667
        ]
      }
    },
    {
      "type": "Feature",
      "properties": {
        "title": "Olyokminsk",
        "unit": "4th regiment",
        "marker-size": "small",
        "marker-color": "#821000",
        "marker-symbol": 4
      },
      "geometry": {
        "type": "Point",
        "coordinates": [
          120.433333,
          60.366667
        ]
      }
    },
    {
      "type": "Feature",
      "properties": {
        "title": "Bodaybo",
        "unit": "4th regiment",
        "marker-size": "small",
        "marker-symbol": 4,
        "marker-color": "#821000"
      },
      "geometry": {
        "type": "Point",
        "coordinates": [
          114.2425,
          57.866389
        ]
      }
    },
    {
      "type": "Feature",
      "properties": {
        "title": "Vitim",
        "unit": "4th regiment",
        "marker-size": "small",
        "marker-symbol": 4,
        "marker-color": "#821000"
      },
      "geometry": {
        "type": "Point",
        "coordinates": [
          112.562778,
          59.457778
        ]
      }
    },
    {
      "type": "Feature",
      "properties": {
        "title": "Kirensk",
        "unit": "4th regiment",
        "marker-size": "small",
        "marker-symbol": 4,
        "marker-color": "#821000"
      },
      "geometry": {
        "type": "Point",
        "coordinates": [
          108.06,
          57.77
        ]
      }
    },
    {
      "type": "Feature",
      "properties": {
        "title": "Ust-Kut",
        "unit": "5th regiment",
        "marker-size": "small",
        "marker-symbol": 5,
        "marker-color": "#821000"
      },
      "geometry": {
        "type": "Point",
        "coordinates": [
          105.73,
          56.856667
        ]
      }
    },
    {
      "type": "Feature",
      "properties": {
        "marker-color": "#821000",
        "marker-symbol": 5,
        "title": "Krasnoyarsk",
        "unit": "5th regiment",
        "marker-size": "small"
      },
      "geometry": {
        "type": "Point",
        "coordinates": [
          92.906667,
          56.041667
        ]
      }
    }
  ]
}