{
  "type": "FeatureCollection",
  "features": [
    {
      "type": "Feature",
      "properties": {
        "marker-color": "#7e7e7e",
        "marker-size": "small",
        "marker-symbol": "",
        "title": "Ladd Army Airfield",
        "unit": "1st regiment"
      },
      "geometry": {
        "type": "Point",
        "coordinates": [
          -147.614167,
          64.8375
        ]
      }
    },
    {
      "type": "Feature",
      "properties": {
        "title": "Galena Airport",
        "marker-size": "small",
        "unit": "1st regiment"
      },
      "geometry": {
        "type": "Point",
        "coordinates": [
          -156.934444,
          64.736111
        ]
      }
    },
    {
      "type": "Feature",
      "properties": {
        "title": "Marks Army Airfield",
        "unit": "1st regiment",
        "marker-size": "small"
      },
      "geometry": {
        "type": "Point",
        "coordinates": [
          -165.445278,
          64.512222
        ]
      }
    },
    {
      "type": "Feature",
      "properties": {
        "title": "Gambell Army Airfield",
        "unit": "1st regiment",
        "marker-size": "small"
      },
      "geometry": {
        "type": "Point",
        "coordinates": [
          -171.733056,
          63.767778
        ]
      }
    },
    {
      "type": "Feature",
      "properties": {
        "marker-color": "#7e7e7e",
        "marker-size": "small",
        "marker-symbol": "",
        "title": "Uelkal",
        "unit": "1st regiment"
      },
      "geometry": {
        "type": "Point",
        "coordinates": [
          -179.283333,
          65.533333
        ]
      }
    },
    {
      "type": "Feature",
      "properties": {
        "marker-color": "#7e7e7e",
        "marker-size": "small",
        "marker-symbol": "",
        "title": "Anadyr",
        "unit": "2nd regiment"
      },
      "geometry": {
        "type": "Point",
        "coordinates": [
          177.516667,
          64.733333
        ]
      }
    },
    {
      "type": "Feature",
      "properties": {
        "marker-color": "#7e7e7e",
        "marker-size": "small",
        "marker-symbol": "",
        "title": "Markovo",
        "unit": "2nd regiment"
      },
      "geometry": {
        "type": "Point",
        "coordinates": [
          170.416667,
          64.666667
        ]
      }
    },
    {
      "type": "Feature",
      "properties": {
        "marker-color": "#7e7e7e",
        "marker-size": "small",
        "marker-symbol": "",
        "title": "Seymchan",
        "unit": "2nd regiment"
      },
      "geometry": {
        "type": "Point",
        "coordinates": [
          152.42,
          62.916667
        ]
      }
    },
    {
      "type": "Feature",
      "properties": {
        "title": "Zyryanka",
        "marker-size": "small",
        "unit": "3rd regiment"
      },
      "geometry": {
        "type": "Point",
        "coordinates": [
          150.705,
          65.736667
        ]
      }
    },
    {
      "type": "Feature",
      "properties": {
        "title": "Susuman",
        "marker-size": "small",
        "unit": "3rd regiment"
      },
      "geometry": {
        "type": "Point",
        "coordinates": [
          148.146667,
          62.766667
        ]
      }
    },
    {
      "type": "Feature",
      "properties": {
        "title": "Oymyakon",
        "marker-size": "small",
        "unit": "3rd regiment"
      },
      "geometry": {
        "type": "Point",
        "coordinates": [
          142.785833,
          63.460833
        ]
      }
    },
    {
      "type": "Feature",
      "properties": {
        "title": "Khandyga",
        "marker-size": "small",
        "unit": "3rd regiment"
      },
      "geometry": {
        "type": "Point",
        "coordinates": [
          135.6,
          62.67
        ]
      }
    },
    {
      "type": "Feature",
      "properties": {
        "title": "Ust-Maya",
        "marker-size": "small",
        "unit": "3rd regiment"
      },
      "geometry": {
        "type": "Point",
        "coordinates": [
          134.3,
          60.42
        ]
      }
    },
    {
      "type": "Feature",
      "properties": {
        "title": "Yakutsk",
        "marker-size": "small",
        "unit": "3rd regiment"
      },
      "geometry": {
        "type": "Point",
        "coordinates": [
          129.771667,
          62.093333
        ]
      }
    }
  ]
}